{
"type": "FeatureCollection",
"name": "just_refine",
"crs": { "type": "name", "properties": { "name": "urn:ogc:def:crs:OGC:1.3:CRS84" } },
"features": [
{ "type": "Feature", "properties": { "REF_ID": "REF530039", "NAME": "TACOMA", "ADDRESS": "3001 MARSHALL AVENUE", "CITY": "TACOMA", "STATE": "WA", "ZIP": "98421", "ZIP4": "3116", "TELEPHONE": "(253) 383-1651", "TYPE": "SMALL MEDIUM COMPLEXITY REFINERY", "STATUS": "IN SERVICE", "POPULATION": 170, "COUNTY": "PIERCE", "COUNTYFIPS": "53053", "COUNTRY": "USA", "LATITUDE": 47.25709, "LONGITUDE": -122.39626, "NAICS_CODE": "324110", "NAICS_DESC": "PETROLEUM REFINERIES", "SOURCE": "EIA-820; EPA TRI", "SOURCEDATE": "2017-01-01", "VAL_METHOD": "IMAGERY/OTHER", "VAL_DATE": "2018-01-31", "WEBSITE": "http://www.usor.com", "OWNER": "TRAILSTONE LP", "OPERNAME": "US OIL & REFINING CO", "RMP_ID": "1000005234", "EPA_ID": "100000127864", "POSREL": "WITHIN 166 FEET", "CAPACITY": 40700, "US_RANK": 103, "CRUDE": 40700, "VACDIST": 19200, "COKING": 0, "THERMALOP": 0, "CATCRACK": 0, "CATREFORM": 6400, "CATHYDCRCK": 0, "CATHYDTRT": 18600, "ALKY": 0, "POLDIM": 0, "AROMATIC": 0, "ISOMER": 4500, "LUBES": 0, "OXYGENATES": 0, "HYDRGN": 0, "COKE": 0, "SULFUR": 11, "ASPHALT": 8000 }, "geometry": { "type": "Point", "coordinates": [ -122.39626, 47.25709 ] } },
{ "type": "Feature", "properties": { "REF_ID": "REF530054", "NAME": "FERNDALE", "ADDRESS": "3901 UNICK ROAD", "CITY": "FERNDALE", "STATE": "WA", "ZIP": "98248", "ZIP4": "NOT AVAILABLE", "TELEPHONE": "(360) 384-8550", "TYPE": "MEDIUM SIZED MEDIUM COMPLEXITY REFINERY", "STATUS": "IN SERVICE", "POPULATION": 406, "COUNTY": "WHATCOM", "COUNTYFIPS": "53073", "COUNTRY": "USA", "LATITUDE": 48.82973, "LONGITUDE": -122.69437, "NAICS_CODE": "324110", "NAICS_DESC": "PETROLEUM REFINERIES", "SOURCE": "EIA-820; EPA TRI", "SOURCEDATE": "2017-01-01", "VAL_METHOD": "IMAGERY/OTHER", "VAL_DATE": "2018-01-31", "WEBSITE": "http://www.phillips66.com", "OWNER": "PHILLIPS 66 COMPANY", "OPERNAME": "PHILLIPS 66 COMPANY", "RMP_ID": "1000009285", "EPA_ID": "100000129924", "POSREL": "WITHIN 166 FEET", "CAPACITY": 101000, "US_RANK": 64, "CRUDE": 101000, "VACDIST": 50700, "COKING": 0, "THERMALOP": 0, "CATCRACK": 34700, "CATREFORM": 16600, "CATHYDCRCK": 0, "CATHYDTRT": 73400, "ALKY": 10200, "POLDIM": 0, "AROMATIC": 0, "ISOMER": 5400, "LUBES": 0, "OXYGENATES": 0, "HYDRGN": 0, "COKE": 0, "SULFUR": 123, "ASPHALT": 0 }, "geometry": { "type": "Point", "coordinates": [ -122.69437, 48.82973 ] } },
{ "type": "Feature", "properties": { "REF_ID": "REF530062", "NAME": "ANACORTES", "ADDRESS": "8505 S. TEXAS RD", "CITY": "ANACORTES", "STATE": "WA", "ZIP": "98221", "ZIP4": "0622", "TELEPHONE": "(360) 293-1701", "TYPE": "MEDIUM TO LARGE COMPLEX REFINERY", "STATUS": "IN SERVICE", "POPULATION": 477, "COUNTY": "SKAGIT", "COUNTYFIPS": "53057", "COUNTRY": "USA", "LATITUDE": 48.47182, "LONGITUDE": -122.55912, "NAICS_CODE": "324110", "NAICS_DESC": "PETROLEUM REFINERIES", "SOURCE": "EIA-820; EPA TRI", "SOURCEDATE": "2017-01-01", "VAL_METHOD": "IMAGERY/OTHER", "VAL_DATE": "2018-01-31", "WEBSITE": "http://www.shell.us", "OWNER": "ROYAL DUTCH/SHELL GROUP", "OPERNAME": "SHELL OIL PRODUCTS US", "RMP_ID": "1000011818", "EPA_ID": "100000099252", "POSREL": "WITHIN 166 FEET", "CAPACITY": 145000, "US_RANK": 53, "CRUDE": 145000, "VACDIST": 65800, "COKING": 22400, "THERMALOP": 0, "CATCRACK": 52900, "CATREFORM": 17600, "CATHYDCRCK": 0, "CATHYDTRT": 128900, "ALKY": 12100, "POLDIM": 0, "AROMATIC": 0, "ISOMER": 0, "LUBES": 0, "OXYGENATES": 0, "HYDRGN": 0, "COKE": 8400, "SULFUR": 350, "ASPHALT": 0 }, "geometry": { "type": "Point", "coordinates": [ -122.55912, 48.47182 ] } },
{ "type": "Feature", "properties": { "REF_ID": "REF530085", "NAME": "ANACORTES", "ADDRESS": "WEST MARCH'S POINT ROAD", "CITY": "ANACORTES", "STATE": "WA", "ZIP": "98221", "ZIP4": "0622", "TELEPHONE": "(360) 293-9126", "TYPE": "MEDIUM TO LARGE COMPLEX REFINERY", "STATUS": "IN SERVICE", "POPULATION": 390, "COUNTY": "SKAGIT", "COUNTYFIPS": "53057", "COUNTRY": "USA", "LATITUDE": 48.493965676000002, "LONGITUDE": -122.565976534, "NAICS_CODE": "324110", "NAICS_DESC": "PETROLEUM REFINERIES", "SOURCE": "EIA-820; EPA TRI", "SOURCEDATE": "2020-06-18", "VAL_METHOD": "IMAGERY/OTHER", "VAL_DATE": "2020-06-22", "WEBSITE": "https://www.marathonpetroleum.com", "OWNER": "MARATHON PETROLEUM CORP", "OPERNAME": "MARATHON PETROLEUM CO LP", "RMP_ID": "1000018956", "EPA_ID": "100000028034", "POSREL": "WITHIN 166 FEET", "CAPACITY": 120000, "US_RANK": 59, "CRUDE": 120000, "VACDIST": 50500, "COKING": 0, "THERMALOP": 0, "CATCRACK": 51100, "CATREFORM": 29200, "CATHYDCRCK": 0, "CATHYDTRT": 98000, "ALKY": 13800, "POLDIM": 0, "AROMATIC": 0, "ISOMER": 7600, "LUBES": 0, "OXYGENATES": 0, "HYDRGN": 0, "COKE": 0, "SULFUR": 54, "ASPHALT": 0 }, "geometry": { "type": "Point", "coordinates": [ -122.56598, 48.49397 ] } },
{ "type": "Feature", "properties": { "REF_ID": "REF530129", "NAME": "CHERRY POINT (FERNDALE)", "ADDRESS": "4519 GRANDVIEW ROAD", "CITY": "BLAINE", "STATE": "WA", "ZIP": "98230", "ZIP4": "NOT AVAILABLE", "TELEPHONE": "(360) 371-1500", "TYPE": "LARGE COMPLEX REFINERY", "STATUS": "IN SERVICE", "POPULATION": 820, "COUNTY": "WHATCOM", "COUNTYFIPS": "53073", "COUNTRY": "USA", "LATITUDE": 48.88423, "LONGITUDE": -122.73373, "NAICS_CODE": "324110", "NAICS_DESC": "PETROLEUM REFINERIES", "SOURCE": "EIA-820; EPA TRI", "SOURCEDATE": "2017-01-01", "VAL_METHOD": "IMAGERY/OTHER", "VAL_DATE": "2018-01-31", "WEBSITE": "http://www.bp.com", "OWNER": "BP PLC", "OPERNAME": "BP WEST COAST PRODUCTS LLC", "RMP_ID": "1000033756", "EPA_ID": "100000048307", "POSREL": "WITHIN 166 FEET", "CAPACITY": 227000, "US_RANK": 29, "CRUDE": 227000, "VACDIST": 112000, "COKING": 55000, "THERMALOP": 0, "CATCRACK": 0, "CATREFORM": 58500, "CATHYDCRCK": 58400, "CATHYDTRT": 149000, "ALKY": 0, "POLDIM": 0, "AROMATIC": 0, "ISOMER": 24000, "LUBES": 0, "OXYGENATES": 0, "HYDRGN": 137, "COKE": 15250, "SULFUR": 284, "ASPHALT": 0 }, "geometry": { "type": "Point", "coordinates": [ -122.73373, 48.88423 ] } },
{ "type": "Feature", "properties": { "REF_ID": "REFBC0147", "NAME": "BURNABY", "ADDRESS": "5201 PENZANCE DRIVE AND 355 N WILLINGDON AVENUE", "CITY": "BURNABY", "STATE": "BC", "ZIP": "V5C 1X4", "ZIP4": "NOT AVAILABLE", "TELEPHONE": "(604) 299-8580", "TYPE": "MEDIUM SIZED MEDIUM COMPLEXITY REFINERY", "STATUS": "IN SERVICE", "POPULATION": 250, "COUNTY": "NOT AVAILABLE", "COUNTYFIPS": "NOT APPLICABLE", "COUNTRY": "CAN", "LATITUDE": 49.29336, "LONGITUDE": -122.98734, "NAICS_CODE": "324110", "NAICS_DESC": "PETROLEUM REFINERIES", "SOURCE": "CAPP", "SOURCEDATE": "2017-01-01", "VAL_METHOD": "IMAGERY/OTHER", "VAL_DATE": "2018-01-31", "WEBSITE": "http://www.parkland.ca/en/", "OWNER": "PARKLAND FUEL CORPORATION", "OPERNAME": "PARKLAND FUEL CORPORATION", "RMP_ID": "NOT APPLICABLE", "EPA_ID": "NOT APPLICABLE", "POSREL": "WITHIN 166 FEET", "CAPACITY": 55000, "US_RANK": -999, "CRUDE": 54721, "VACDIST": 11951, "COKING": -999, "THERMALOP": 0, "CATCRACK": 17611, "CATREFORM": 9749, "CATHYDCRCK": 0, "CATHYDTRT": 45287, "ALKY": 2830, "POLDIM": 0, "AROMATIC": -999, "ISOMER": 9749, "LUBES": 0, "OXYGENATES": 0, "HYDRGN": -999, "COKE": 0, "SULFUR": 107, "ASPHALT": 2201 }, "geometry": { "type": "Point", "coordinates": [ -122.98734, 49.29336 ] } }
]
}
